[
  {
    "name": "Les Rolston Contracting",
    "address": "6705 Bluff Lake Rd",
    "city": "Tatla Lake",
    "province": "BC",
    "postalCode": "V0L 1V0",
    "coordinates": "51.7584829,-124.6991615"
  },
  {
    "name": "Seidler Stucco & Tile",
    "address": "8212 Alpine Way",
    "city": "Whistler",
    "province": "BC",
    "postalCode": "V0N 1B8",
    "coordinates": "50.145188,-122.96772"
  },
  {
    "name": "Euro Gutters Ltd",
    "address": "8212 Alpine Way",
    "city": "Whistler",
    "province": "BC",
    "postalCode": "V0N 1B8",
    "coordinates": "50.145188,-122.96772"
  },
  {
    "name": "Whistler Forest Products Corporation",
    "address": "9229 Pinetree Ln",
    "city": "Whistler",
    "province": "BC",
    "postalCode": "V0N 1B9",
    "coordinates": "50.1596442,-122.9291934"
  },
  {
    "name": "Diamondhead Films",
    "address": "8231 Alpine Way",
    "city": "Whistler",
    "province": "BC",
    "postalCode": "V0N 1B8",
    "coordinates": "50.1452624,-122.9691643"
  },
  {
    "name": "Whistler Secondary School",
    "address": "8000 Alpine Way",
    "city": "Whistler",
    "province": "BC",
    "postalCode": "V0N 1B8",
    "coordinates": "50.15096200000001,-122.960696"
  },
  {
    "name": "Cedar Springs B & B Lodge",
    "address": "8106 Camino Dr",
    "city": "Whistler",
    "province": "BC",
    "postalCode": "V0N 1B8",
    "coordinates": "50.14528350000001,-122.9645834"
  },
  {
    "name": "Whistler Airport",
    "address": "8069 Nicklaus N Blvd",
    "city": "Whistler",
    "province": "BC",
    "postalCode": "V0N 1B8",
    "coordinates": "50.14357599999999,-122.9489583"
  },
  {
    "name": "Whistler Towing",
    "address": "8017 BC-99",
    "city": "Whistler",
    "province": "BC",
    "postalCode": "V0N 1B8",
    "coordinates": "50.15033409999999,-122.9624415"
  },
  {
    "name": "Belle Neige Suites",
    "address": "8597 Drifter Way",
    "city": "Whistler",
    "province": "BC",
    "postalCode": "V0N 1B8",
    "coordinates": "50.1475719,-122.9694111"
  },
  {
    "name": "Whistler Connection",
    "address": "8312 Mountain View Dr",
    "city": "Whistler",
    "province": "BC",
    "postalCode": "V0N 1B8",
    "coordinates": "50.150145,-122.970132"
  },
  {
    "name": "Alpine Lodge Hostel",
    "address": "8135 Alpine Way",
    "city": "Whistler",
    "province": "BC",
    "postalCode": "V0N 1B8",
    "coordinates": "50.148207,-122.964164"
  },
  {
    "name": "Alpine Cafe & Catering Co",
    "address": "8104 Mckeevers Pl",
    "city": "Whistler",
    "province": "BC",
    "postalCode": "V0N 1B8",
    "coordinates": "50.148459,-122.962756"
  },
  {
    "name": "Nimpo Bakery & Cafe",
    "address": "21103 Chilcotin-Bella Coola Hwy",
    "city": "Nimpo Lake",
    "province": "BC",
    "postalCode": "V0L 1R0",
    "coordinates": "52.3405595,-125.1427361"
  },
  {
    "name": "Robin O'Neill Weddings",
    "address": "8317 Crazy Canuck Dr",
    "city": "Whistler",
    "province": "BC",
    "postalCode": "V0N 1B9",
    "coordinates": "50.1564996,-122.953321"
  },
  {
    "name": "Stewart's Lodge & Camps",
    "address": "21173 Chilcotin-Bella Coola Hwy",
    "city": "Nimpo Lake",
    "province": "BC",
    "postalCode": "V0L 1R0",
    "coordinates": "52.3453035,-125.1529937"
  },
  {
    "name": "Whistler Olympic Park",
    "address": "5 Callaghan Rd",
    "city": "Whistler",
    "province": "BC",
    "postalCode": "V0N 1B8",
    "coordinates": "50.139477,-123.113651"
  },
  {
    "name": "Wilderness Rim Resort",
    "address": "1105 Lyle Rd",
    "city": "Nimpo Lake",
    "province": "BC",
    "postalCode": "V0L 1R0",
    "coordinates": "52.32890099999999,-125.1431017"
  },
  {
    "name": "Whistler Landscaping",
    "address": "8352 Valley Dr",
    "city": "Whistler",
    "province": "BC",
    "postalCode": "V0N 1B8",
    "coordinates": "50.155215,-122.964266"
  },
  {
    "name": "Nimpo Lake Resort",
    "address": "1595 Nimpo Creek Rd",
    "city": "Nimpo Lake",
    "province": "BC",
    "postalCode": "V0L 1R0",
    "coordinates": "52.3707059,-125.2358144"
  },
  {
    "name": "AJ B&B",
    "address": "1301 Nimpo Lake Road North Peninsula",
    "city": "Nimpo Lake",
    "province": "BC",
    "postalCode": "V0L 1R0",
    "coordinates": "52.3407243,-125.1574462"
  },
  {
    "name": "Chilcotin's Waterfront Resort & Motel",
    "address": "1874 Otter Rd",
    "city": "Nimpo Lake",
    "province": "BC",
    "postalCode": "V0L 1R0",
    "coordinates": "52.333333,-125.15"
  }
]